City_ID,City,Lat,Lng,Max Temp,Humidity,Cloudiness,Wind Speed,Country,Date
0,salekhard,66.53,66.6019,19.49,84,100,20.98,RU,1708474971
1,ati,13.2154,18.3353,76.98,13,20,10.92,TD,1708474971
2,grytviken,-54.2811,-36.5092,37.17,78,95,9.6,GS,1708474441
3,college,64.8569,-147.8028,44.92,63,75,4.61,US,1708474452
4,port hedland,-20.3167,118.5667,86.05,89,80,2.3,AU,1708474972
5,vadso,70.0744,29.7487,15.96,67,46,17.27,NO,1708474557
6,waitangi,-43.9535,-176.5597,61.83,66,89,4.0,NZ,1708474462
7,sitka,57.0531,-135.33,42.69,81,100,0.0,US,1708474441
8,kapa'a,22.0752,-159.319,80.58,50,0,12.66,US,1708474436
9,blackmans bay,-43.0167,147.3167,75.52,64,2,8.23,AU,1708474472
10,margaret river,-33.95,115.0667,70.32,89,18,13.31,AU,1708474461
11,edinburgh of the seven seas,-37.0676,-12.3116,63.3,70,90,16.93,SH,1708474973
12,colonia,50.9333,6.95,49.96,73,100,6.91,DE,1708474404
13,new norfolk,-42.7826,147.0587,76.71,54,14,5.14,AU,1708474573
14,juneau,58.3019,-134.4197,38.41,97,100,9.22,US,1708474524
15,la'ie,21.6477,-157.9253,80.56,53,63,5.01,US,1708474562
16,hawaiian paradise park,19.5933,-154.9731,78.31,62,0,12.66,US,1708474499
17,ribeira grande,38.5167,-28.7,63.77,86,100,17.0,PT,1708474975
18,fujikawaguchiko,35.4893,138.6883,46.36,75,100,2.95,JP,1708474975
19,kodiak,57.79,-152.4072,42.31,70,100,11.5,US,1708474465
20,hithadhoo,-0.6,73.0833,83.43,75,100,7.38,MV,1708474975
21,west island,-12.1568,96.8225,75.18,88,76,2.3,CC,1708474442
22,anadyr,64.75,177.4833,0.1,77,75,8.95,RU,1708474493
23,singaraja,-8.112,115.0882,82.92,81,26,1.83,ID,1708474966
24,yarmouth,41.7057,-70.2286,28.96,73,0,1.99,US,1708474613
25,minas de marcona,-15.2119,-75.1103,68.02,83,96,7.29,PE,1708474562
26,tura,25.5198,90.2201,59.49,89,0,3.62,IN,1708474483
27,longyearbyen,78.2186,15.6401,13.84,67,75,1.14,SJ,1708474484
28,rio grande,-32.035,-52.0986,73.51,77,2,11.68,BR,1708474561
29,puerto natales,-51.7236,-72.4875,52.25,66,0,13.8,CL,1708474464
30,pisco,-13.7,-76.2167,78.85,78,75,12.66,PE,1708474622
31,dawesville,30.9224,-84.0091,58.35,39,0,0.0,US,1708474977
32,kingsford,-33.924,151.2275,77.18,83,40,12.66,AU,1708474978
33,uturoa,-16.7333,-151.4333,82.18,74,75,6.44,PF,1708474496
34,glasgow,55.8652,-4.2576,42.98,86,25,6.91,GB,1708474978
35,avarua,-21.2078,-159.775,78.85,100,75,17.27,CK,1708474468
36,puerto baquerizo moreno,-0.9,-89.6,79.18,87,100,10.2,EC,1708474586
37,la foa,-21.7108,165.8276,82.15,75,47,5.97,NC,1708474978
38,dili,-8.5586,125.5736,82.63,81,77,3.85,TL,1708474979
39,hermanus,-34.4187,19.2345,66.79,84,6,5.91,ZA,1708474499
40,invercargill,-46.4,168.35,59.02,76,81,10.0,NZ,1708474480
41,khairpur mir's,27.5295,68.7617,57.2,15,0,6.91,PK,1708474979
42,waingapu,-9.6567,120.2641,83.61,77,90,9.86,ID,1708474979
43,el granada,37.5027,-122.4694,56.37,88,100,6.91,US,1708474980
44,ust-nera,64.5667,143.2,-27.62,98,97,2.21,RU,1708474461
45,volzhskiy,48.7858,44.7797,18.91,84,100,5.84,RU,1708474980
46,adamstown,-25.066,-130.1015,79.21,79,95,7.92,PN,1708474454
47,thompson,55.7435,-97.8558,0.3,94,100,5.32,CA,1708474496
48,albany,42.6001,-73.9662,29.68,56,5,1.14,US,1708474728
49,rybnaya sloboda,55.4613,50.1409,-8.97,100,92,3.31,RU,1708474981
50,bilibino,68.0546,166.4372,-6.14,82,58,7.61,RU,1708474981
51,jamestown,42.097,-79.2353,36.46,57,5,1.01,US,1708474466
52,nogliki,51.8333,143.1667,-7.65,84,52,13.0,RU,1708474981
53,port-aux-francais,-49.35,70.2167,44.28,93,100,34.11,TF,1708474463
54,suva,-18.1416,178.4415,92.68,66,75,3.44,FJ,1708474875
55,arno,60.1167,18.6333,29.79,95,81,8.03,SE,1708474982
56,bethel,41.3712,-73.414,30.29,47,0,3.44,US,1708474451
57,saipan,15.1355,145.701,81.3,69,75,19.57,MP,1708474453
58,hadibu,12.65,54.0333,74.37,78,30,3.6,YE,1708474520
59,souillac,-20.5167,57.5167,79.18,73,75,11.5,MU,1708474983
60,axim,4.8699,-2.2405,81.57,86,84,6.35,GH,1708474983
61,kayangel,8.0823,134.7173,81.12,81,77,18.86,PW,1708474983
62,papatowai,-46.5619,169.4708,58.37,68,84,8.59,NZ,1708474479
63,bredasdorp,-34.5322,20.0403,66.09,84,3,5.57,ZA,1708474463
64,puerto ayora,-0.7393,-90.3518,80.55,93,99,3.0,EC,1708474462
65,cidade velha,14.9167,-23.6167,75.67,73,95,14.97,CV,1708474986
66,margate,51.3813,1.3862,49.89,82,100,10.0,GB,1708474511
67,kuanda,56.3161,116.0806,-8.39,99,100,4.34,RU,1708474533
68,port mathurin,-19.6833,63.4167,79.43,72,100,24.38,MU,1708474464
69,ushuaia,-54.8,-68.3,45.34,81,68,3.06,AR,1708474467
70,iqaluit,63.7506,-68.5145,-16.31,75,75,21.85,CA,1708474987
71,hami,42.8,93.45,18.16,36,65,6.67,CN,1708474603
72,puerto deseado,-47.7503,-65.8938,56.37,79,94,16.73,AR,1708474987
73,flying fish cove,-10.4217,105.6791,76.68,94,75,0.0,CX,1708474988
74,sisimiut,66.9395,-53.6735,15.87,81,94,11.3,GL,1708474570
75,casper,42.8666,-106.3131,46.99,46,0,14.97,US,1708474988
76,aasiaat,68.7098,-52.8699,2.52,98,59,6.33,GL,1708474479
77,borba,-4.3878,-59.5939,77.77,75,97,3.36,BR,1708474989
78,barcelos,41.5388,-8.6151,56.84,78,77,2.55,PT,1708474534
79,georgetown,5.4112,100.3354,82.33,83,20,2.3,MY,1708474452
80,valparaiso,-33.0393,-71.6273,65.84,68,0,4.61,CL,1708474932
81,stanley,54.868,-1.6985,41.79,79,20,6.91,GB,1708474477
82,aioun,16.6614,-9.6149,69.57,18,94,10.02,MR,1708474991
83,punta arenas,-53.15,-70.9167,46.89,72,40,5.39,CL,1708474560
84,tan-tan,28.438,-11.1032,60.49,91,0,8.79,MA,1708474991
85,talnakh,69.4865,88.3972,2.21,92,100,18.14,RU,1708474488
86,keflavik,64.0049,-22.5624,33.71,100,40,13.8,IS,1708474483
87,san luis,-33.295,-66.3356,79.86,47,8,8.99,AR,1708474998
88,qamdo,31.1667,97.2333,18.1,62,87,6.53,CN,1708474999
89,klyuchi,52.2667,79.1667,-20.81,100,6,2.68,RU,1708474559
90,arraial do cabo,-22.9661,-42.0278,75.34,94,100,11.23,BR,1708474488
91,lorengau,-2.0226,147.2712,81.16,87,98,8.14,PG,1708474550
92,sibay,52.7181,58.6658,-3.78,97,100,1.01,RU,1708475000
93,colonia nicolich,-34.8131,-56.0447,75.31,78,0,13.8,UY,1708475000
94,nuuk,64.1835,-51.7216,36.21,32,13,8.05,GL,1708474589
95,fort bragg,35.139,-79.006,49.84,47,0,4.61,US,1708474528
96,laguna,38.421,-121.4238,60.17,75,100,10.36,US,1708474546
97,ebon,4.582,168.6964,83.77,79,87,15.52,MH,1708475001
98,visby,57.6409,18.296,34.83,93,100,5.75,SE,1708474497
99,pingliang,35.5392,106.6861,19.81,87,100,7.76,CN,1708475001
100,ancud,-41.8697,-73.8203,58.93,93,96,6.51,CL,1708474543
101,sur,22.5667,59.5289,72.39,66,1,4.36,OM,1708474617
102,mildura,-34.2,142.15,91.08,38,71,16.53,AU,1708475002
103,kulhudhuffushi,6.6221,73.07,82.44,77,6,8.16,MV,1708474620
104,selfoss,63.9331,-20.9971,35.04,91,92,11.39,IS,1708474464
105,champerico,14.3,-91.9167,90.14,68,0,8.75,GT,1708475003
106,atafu village,-8.5421,-172.5159,83.43,76,85,9.64,TK,1708474441
107,ugoofaaru,5.6667,73.0,81.82,80,15,10.83,MV,1708474558
108,saint-pierre,-21.3393,55.4781,74.88,78,75,4.61,RE,1708474580
109,geraldton,-28.7667,114.6,72.01,83,76,6.91,AU,1708474471
110,sao joao da barra,-21.6403,-41.0511,77.09,90,100,4.36,BR,1708475004
111,tazovsky,67.4667,78.7,8.91,92,100,24.99,RU,1708474536
112,walvis bay,-22.9575,14.5053,63.55,82,61,5.86,NA,1708475004
113,kyzyl-suu,42.3414,78.0056,18.1,92,100,5.41,KG,1708475004
114,novyy urengoy,66.0833,76.6333,6.84,89,100,25.79,RU,1708475005
115,petropavlovsk-kamchatsky,53.0452,158.6483,14.59,72,75,44.0,RU,1708474524
116,kaa-khem,51.6833,94.7333,-29.15,92,91,2.89,RU,1708475005
117,protaras,35.0125,34.0583,54.99,80,33,5.01,CY,1708475005
118,tolanaro,-25.0319,46.9987,71.98,87,57,10.31,MG,1708474550
119,chonchi,-42.6128,-73.8092,64.11,87,100,2.26,CL,1708474582
120,lumding railway colony,25.749,93.17,57.78,88,12,2.35,IN,1708475006
121,shenjiamen,29.9576,122.298,49.55,98,100,10.27,CN,1708475006
122,pontarlier,46.8333,6.25,35.94,83,90,1.48,FR,1708475006
123,lompoc,34.6391,-120.4579,63.93,65,75,7.0,US,1708474310
124,whitehorse,60.7161,-135.0538,38.01,67,99,17.0,CA,1708474380
125,kirensk,57.7853,108.1119,-8.64,91,100,10.38,RU,1708474545
126,dudinka,69.4058,86.1778,4.68,93,100,28.99,RU,1708474530
127,salalah,17.0151,54.0924,73.49,56,0,3.44,OM,1708475008
128,shache,38.4167,77.2406,27.36,51,28,2.93,CN,1708475008
129,remire-montjoly,4.9167,-52.2667,78.84,83,0,5.75,GF,1708474600
130,dompu,-8.5356,118.4622,82.09,86,56,2.53,ID,1708475009
131,prince rupert,54.3161,-130.3201,44.69,76,0,3.44,CA,1708475009
132,san luis de la loma,17.2706,-100.8939,82.63,55,0,7.87,MX,1708474606
133,abong mbang,3.9833,13.1833,74.39,73,100,2.98,CM,1708475009
134,tiksi,71.6872,128.8694,-32.98,96,43,4.97,RU,1708474479
135,pochinok,54.4068,32.4407,22.73,96,100,12.73,RU,1708475010
136,tual,-5.6667,132.75,84.04,79,100,10.58,ID,1708475010
137,bel ombre,-4.6167,55.4167,82.24,83,75,17.27,SC,1708475010
138,akureyri,65.6835,-18.0878,33.73,69,20,14.97,IS,1708475011
139,santo antonio,-6.3106,-35.4789,76.48,90,63,5.28,BR,1708474472
140,pagar alam,-4.0167,103.2667,70.34,96,100,2.06,ID,1708475011
141,port alfred,-33.5906,26.891,66.18,91,34,5.01,ZA,1708474523
142,ha'il,27.5219,41.6907,51.82,54,0,2.3,SA,1708475012
143,manokwari,-0.8667,134.0833,76.57,92,100,0.63,ID,1708474490
144,castillos,-34.1667,-53.8333,71.35,76,29,8.16,UY,1708475012
145,adrar,20.5022,-10.0711,65.84,22,1,12.03,MR,1708474579
146,badger,64.8,-147.5333,44.85,64,75,4.61,US,1708474459
147,madalena,41.2162,-8.3345,56.55,86,74,2.64,PT,1708475013
148,susuman,62.7833,148.1667,-26.01,94,98,3.0,RU,1708474469
149,ta`u,-14.2336,-169.5144,82.92,80,100,19.22,AS,1708475013
150,soure,-0.7167,-48.5233,77.38,80,74,6.71,BR,1708474525
151,kodinar,20.7903,70.7031,71.53,85,0,11.21,IN,1708475014
152,tobelo,1.7284,128.0095,81.14,78,76,2.89,ID,1708474828
153,amos,48.5669,-78.1162,7.83,94,50,5.03,CA,1708475014
154,santana,-0.0583,-51.1817,82.58,74,75,10.36,BR,1708474482
155,jinka,5.65,36.65,72.01,57,55,1.92,ET,1708475015
156,santa rosa de rio primero,-31.1523,-63.4019,78.21,45,66,5.01,AR,1708475015
157,san clemente del tuyu,-36.3569,-56.7235,73.98,88,63,14.94,AR,1708475015
158,port elizabeth,-33.918,25.5701,66.49,91,40,18.41,ZA,1708474474
159,menaka,15.9182,2.4022,73.45,11,15,10.04,ML,1708475016
160,peace river,56.2501,-117.286,30.51,64,100,3.44,CA,1708475016
161,belozersk,60.0326,37.7957,16.99,90,100,8.01,RU,1708475016
162,djambala,-2.5447,14.7533,70.92,92,70,4.36,CG,1708475016
163,kailua-kona,19.6406,-155.9956,80.56,61,75,8.05,US,1708474450
164,udachny,66.4167,112.4,-10.55,83,100,10.8,RU,1708474538
165,ust'-charyshskaya pristan',52.3934,83.6635,-21.15,99,13,4.05,RU,1708475017
166,cabo san lucas,22.8909,-109.9124,88.9,24,0,11.5,MX,1708474334
167,mahina,-17.5065,-149.489,87.57,70,20,10.36,PF,1708475017
168,tocopilla,-22.092,-70.1979,72.93,72,18,2.59,CL,1708475018
169,ar rumaythah,31.5263,45.2025,58.55,48,0,6.22,IQ,1708475018
170,songea,-10.6833,35.65,65.64,93,97,1.05,TZ,1708475018
171,mount isa,-20.7333,139.5,83.97,74,100,8.05,AU,1708474497
172,hamilton,39.1834,-84.5333,50.77,45,0,5.01,US,1708474482
173,pandan,14.0453,124.1694,79.43,77,59,11.81,PH,1708475019
174,belmonte,-15.8631,-38.8828,79.16,91,100,11.34,BR,1708474601
175,san patricio,28.017,-97.5169,75.16,74,0,12.08,US,1708474610
176,fuxin,42.0156,121.6589,7.79,36,100,13.18,CN,1708475019
177,king city,36.2127,-121.126,56.91,61,72,9.44,US,1708474790
178,gurupa,-1.405,-51.64,76.78,77,69,4.41,BR,1708475020
179,iskateley,67.6803,53.1512,18.01,91,90,21.99,RU,1708474621
180,sabang,5.8933,95.3214,81.45,78,67,3.87,ID,1708475020
181,song cau,13.45,109.2167,74.8,90,73,3.0,VN,1708475020
182,la passe,45.5549,-0.8967,44.98,86,100,6.8,FR,1708474471
183,bratsk,56.1325,101.6142,-16.11,99,22,2.68,RU,1708475021
184,miles city,46.4083,-105.8406,52.77,43,0,0.0,US,1708475021
185,craig,40.5153,-107.5464,38.39,87,100,0.0,US,1708475021
186,yellowknife,62.456,-114.3525,0.41,81,99,5.01,CA,1708474467
187,sao vicente,-23.9631,-46.3919,76.26,62,81,5.01,BR,1708475022
188,port lincoln,-34.7333,135.8667,75.65,56,24,4.5,AU,1708474558
189,wau,7.7029,27.9953,80.02,15,82,5.64,SS,1708475022
190,isafjordur,66.0755,-23.124,26.92,94,99,6.67,IS,1708474460
191,vrangel',42.7297,133.0839,12.25,44,90,12.64,RU,1708475023
192,bikenibeu village,1.3673,173.1241,89.56,70,75,12.66,KI,1708474537
193,lebu,-37.6167,-73.65,58.78,92,37,9.89,CL,1708474611
194,mount pearl,47.5166,-52.7813,18.73,83,16,5.99,CA,1708474442
195,nephi,39.7102,-111.8363,44.19,96,100,4.88,US,1708475024
196,vorgashor,67.5833,63.95,18.7,93,100,21.83,RU,1708474470
197,east london,-33.0153,27.9116,71.13,91,16,3.85,ZA,1708474489
198,nyurba,63.2842,118.3319,-14.37,98,96,5.55,RU,1708475024
199,nuku'alofa,-21.1333,-175.2,79.92,84,82,17.9,TO,1708474478
200,maintirano,-18.0667,44.0167,77.9,89,99,7.63,MG,1708475025
201,hengchun,22.0042,120.7439,76.77,80,23,16.58,TW,1708475025
202,sastobe,42.55,70.0,13.89,81,63,5.88,KZ,1708475025
203,whitecourt,54.1502,-115.6855,36.64,48,100,5.75,CA,1708475025
204,hurricane,37.1753,-113.2899,49.33,90,100,1.99,US,1708475026
205,kolonia,50.9333,6.95,49.96,74,100,6.91,DE,1708474917
206,utrik,11.2278,169.8474,79.9,83,100,19.39,MH,1708474538
207,pedregal,8.3667,-82.4333,82.2,74,40,5.01,PA,1708475026
208,timbuktu,16.7735,-3.0074,68.7,15,58,9.4,ML,1708475027
209,high river,50.5834,-113.8687,31.55,91,59,2.08,CA,1708475027
210,mukalla,14.5425,49.1242,72.54,77,4,3.22,YE,1708474476
211,huai khot,15.2909,99.6166,78.04,67,63,3.58,TH,1708475027
212,mount gambier,-37.8333,140.7667,84.58,27,1,6.06,AU,1708474531
213,constantia,44.1833,28.65,36.28,83,100,5.79,RO,1708474485
214,taoudenni,22.6783,-3.9836,70.29,20,0,16.11,ML,1708475028
215,zhezqazghan,47.7833,67.7667,-19.62,76,40,13.42,KZ,1708475028
216,holyhead,53.3062,-4.6321,48.13,100,20,10.36,GB,1708475028
217,ilulissat,69.2167,-51.1,30.22,40,0,13.8,GL,1708474459
218,obo,5.3998,26.4869,81.0,18,90,3.94,CF,1708475029
219,rawson,-43.3002,-65.1023,67.87,66,79,5.66,AR,1708474554
220,alcaniz,41.05,-0.1333,50.86,45,71,5.39,ES,1708475029
221,evinayong,1.4368,10.5512,70.54,97,96,2.13,GQ,1708475029
222,mach,29.8637,67.3298,49.93,37,0,9.89,PK,1708475030
223,egilsstadir,65.2653,-14.3948,30.11,69,0,3.44,IS,1708474614
224,suntar,62.1444,117.6319,-1.86,90,90,10.58,RU,1708475030
225,tshabong,-26.05,22.45,86.34,24,56,5.59,BW,1708475030
226,agat village,13.3886,144.6585,83.34,67,0,19.57,GU,1708475030
227,kavalerovo,44.2661,135.0572,0.39,85,91,8.01,RU,1708475031
228,kuqa,41.7278,82.9364,22.21,34,90,1.99,CN,1708475031
229,eyl,7.9803,49.8164,75.29,83,99,9.57,SO,1708474562
230,chandler,33.3062,-111.8412,80.82,18,0,3.44,US,1708474934
231,pacific grove,36.6177,-121.9166,56.01,89,75,10.0,US,1708475031
232,lihue,21.9789,-159.3672,79.84,50,0,12.66,US,1708474581
233,carnarvon,-24.8667,113.6333,81.03,60,98,24.29,AU,1708474523
234,chernyshevskiy,63.0128,112.4714,-12.41,94,41,8.41,RU,1708474556
235,richards bay,-28.783,32.0377,73.02,82,16,7.47,ZA,1708475032
236,curaca,-8.9903,-39.9094,76.91,79,90,7.58,BR,1708475032
237,masterton,-40.9597,175.6575,67.89,34,13,4.23,NZ,1708474547
238,greenwood,34.1668,-82.1165,51.96,50,0,0.0,US,1708475033
239,kitimat,54.0524,-128.6534,49.91,61,9,1.45,CA,1708475033
240,mar del plata,-38.0023,-57.5575,75.09,93,0,15.01,AR,1708474742
241,cruzeiro do sul,-29.5128,-51.9853,75.07,78,0,4.74,BR,1708475033
242,swan hill,-35.3378,143.5544,86.95,33,43,13.96,AU,1708475034
243,kokopo,-4.352,152.2633,84.97,68,100,7.43,PG,1708475034
244,kokshetau,53.2775,69.3883,-21.89,88,18,6.31,KZ,1708475034
245,mili,6.0815,171.735,82.65,81,99,14.47,MH,1708474601
246,narasannapeta,18.4167,84.05,70.66,83,13,6.13,IN,1708475035
247,watford city,47.8022,-103.2832,42.66,65,20,3.44,US,1708475035
248,howard springs,-12.497,131.047,87.87,78,100,7.18,AU,1708475035
249,ierapetra,35.01,25.7353,54.14,77,78,7.0,GR,1708475035
250,ola,59.5833,151.2833,-8.86,74,100,12.57,RU,1708474603
251,qaqortoq,60.7167,-46.0333,30.45,70,100,9.89,GL,1708474477
252,greeley,40.4233,-104.7091,60.1,40,41,1.86,US,1708475036
253,islamorada,24.9243,-80.6278,66.0,75,0,18.54,US,1708474748
254,taroa,8.7058,171.2275,81.37,83,90,20.96,MH,1708475036
255,severo-yeniseyskiy,60.3725,93.0408,-20.42,100,90,5.01,RU,1708474620
256,busan,35.1028,129.0403,44.58,81,100,6.91,KR,1708474806
257,puerto armuelles,8.2833,-82.8667,82.09,69,56,1.01,PA,1708475037
258,lawas,13.764,121.0566,78.37,69,33,11.92,PH,1708475037
259,kanash,55.5086,47.4956,-5.44,100,99,4.63,RU,1708475038
260,dubbo,-32.25,148.6167,80.73,61,73,9.22,AU,1708475038
261,tindouf,27.6711,-8.1474,61.25,27,0,5.75,DZ,1708475038
262,tommot,58.9564,126.2925,-3.12,91,100,13.94,RU,1708474888
263,mata-utu,-13.2816,-176.1745,80.38,88,100,19.8,WF,1708474590
264,coquimbo,-29.9533,-71.3436,65.7,81,81,5.48,CL,1708474441
265,plastun,44.7561,136.2939,6.69,46,76,10.85,RU,1708475039
266,dalbandin,28.8947,64.4101,51.84,33,3,5.77,PK,1708475039
267,nemuro,43.3236,145.575,22.73,58,100,7.74,JP,1708474578
268,bardai,11.65,7.2333,74.41,16,23,7.65,NG,1708474489
269,sinabang,2.4803,96.3801,77.76,92,100,5.7,ID,1708474471
270,kabinda,-6.1333,24.4833,68.5,91,44,4.32,CD,1708475040
271,dodge city,37.7528,-100.0171,66.45,24,0,4.61,US,1708474463
272,paphos,34.7667,32.4167,49.78,76,0,9.22,CY,1708475040
273,lata,40.1629,-8.3327,48.92,79,53,2.06,PT,1708475040
274,karratha,-20.7377,116.8463,86.67,63,52,6.6,AU,1708474548
275,el golaa,33.4849,9.0068,56.86,52,94,9.64,TN,1708475041
276,lepsy,46.235,78.9456,-10.14,89,8,9.06,KZ,1708475041
277,ocean shores,46.9737,-124.1563,53.94,93,100,6.91,US,1708474764
278,puerto colombia,10.9878,-74.9547,80.69,85,84,26.42,CO,1708475042
279,kenai,60.5544,-151.2583,41.09,78,100,20.71,US,1708475042
280,polyarnyy,69.1989,33.4478,4.3,94,80,8.95,RU,1708474542
281,byron bay,-28.65,153.6167,79.72,67,50,5.06,AU,1708475042
282,galliano,29.4422,-90.2992,64.99,72,0,6.91,US,1708474582
283,tamandare,-8.7597,-35.1047,81.28,83,65,9.04,BR,1708475043
284,aleksandrovsk,59.158,57.5624,2.88,97,100,7.7,RU,1708475043
285,nchelenge,-9.3451,28.734,70.21,87,99,3.49,ZM,1708474521
286,boguchany,58.3814,97.4531,-27.15,100,15,3.0,RU,1708475044
287,igarka,67.4667,86.5833,0.37,94,100,24.02,RU,1708475044
288,iturama,-19.7281,-50.1956,70.93,90,52,2.35,BR,1708475044
289,tobol'sk,58.2,68.2667,-9.4,85,100,8.99,RU,1708475045
290,kandahar,31.0,65.75,43.68,44,63,4.9,AF,1708475045
291,nova vicosa,-17.8919,-39.3719,75.61,96,100,12.33,BR,1708474591
292,mejit,10.2753,170.8646,80.53,81,68,19.39,MH,1708474553
293,mhamid,29.82,-5.72,63.01,26,13,6.13,MA,1708475045
294,holualoa,19.6228,-155.9522,76.84,62,75,8.05,US,1708474555
295,dakhla,23.6848,-15.958,65.8,78,0,23.44,EH,1708474611
296,waddan,29.1614,16.139,57.02,44,57,9.28,LY,1708475047
297,tralee,52.2704,-9.7026,45.5,91,100,7.07,IE,1708474597
298,namagiripettai,11.4667,78.2667,70.25,86,5,2.17,IN,1708475047
299,hiratacho,35.4333,132.8167,48.22,93,75,16.11,JP,1708474782
300,bodaybo,57.8506,114.1933,-0.96,88,100,9.37,RU,1708475047
301,merizo village,13.2658,144.6691,82.96,77,70,20.85,GU,1708474522
302,fortuna,40.5982,-124.1573,59.67,82,20,14.97,US,1708474615
303,kourou,5.1552,-52.6478,78.85,83,60,8.63,GF,1708475048
304,aykhal,66.0,111.5,-11.63,100,98,5.99,RU,1708474527
305,trenggalek,-8.05,111.7167,79.99,91,95,1.14,ID,1708475049
306,al fulah,11.7329,28.3579,72.5,12,38,13.58,SD,1708475049
307,afaahiti,-17.75,-149.2833,85.87,78,77,7.34,PF,1708474487
308,boquira,-12.8231,-42.7306,70.57,97,99,1.39,BR,1708475050
309,homer,59.6425,-151.5483,44.49,57,20,19.57,US,1708475051
310,olonkinbyen,70.9221,-8.7187,32.45,99,100,15.48,SJ,1708475051
311,sydney,-33.8679,151.2073,77.32,84,40,10.36,AU,1708474316
312,ponta delgada,37.7333,-25.6667,65.19,72,75,10.36,PT,1708475051
313,wakkanai,45.4094,141.6739,19.38,68,75,25.32,JP,1708475052
314,dryden,49.7833,-92.7503,32.29,64,100,3.44,CA,1708475052
315,aitape,-3.1374,142.3475,79.88,86,100,7.83,PG,1708475052
316,portland,45.5234,-122.6762,56.28,73,75,4.0,US,1708474616
317,st. john's,47.5649,-52.7093,19.56,82,17,17.0,CA,1708474168
318,kingston,17.997,-76.7936,74.16,91,96,5.82,JM,1708474248
319,wailua homesteads,22.0669,-159.378,79.23,50,0,12.66,US,1708474454
320,oliver,49.1831,-119.5524,46.31,71,100,3.44,CA,1708475053
321,tamanrasset,22.785,5.5228,55.31,18,0,8.05,DZ,1708474590
322,saint croix,17.7397,-64.7388,77.45,84,100,4.61,VI,1708475054
323,grand falls-windsor,48.9332,-55.6649,15.51,71,92,8.01,CA,1708475054
324,fale old settlement,-9.3852,-171.2468,82.62,76,97,9.82,TK,1708474472
325,chuguyevka,44.1653,133.8633,-0.36,84,83,2.46,RU,1708475055
326,machico,32.7,-16.7667,65.03,83,40,14.97,PT,1708475055
327,gunjur,13.2019,-16.7339,79.14,34,31,12.53,GM,1708475055
328,ganjam,19.3833,85.0667,72.86,69,7,11.23,IN,1708475056
329,wanning,18.8003,110.3967,73.6,94,18,9.95,CN,1708475056
330,lazaro cardenas,17.9583,-102.2,80.96,60,1,7.63,MX,1708474485
331,khanpur,28.6453,70.6567,57.99,17,0,9.44,PK,1708475057
332,bowen,-20.0167,148.2333,84.27,65,100,11.92,AU,1708474550
333,palikir - national government center,6.9248,158.1611,77.85,94,100,17.27,FM,1708475058
334,calvinia,-31.4707,19.776,64.74,50,3,5.12,ZA,1708474537
335,lebyazh'ye,55.2689,66.4947,-18.85,85,89,7.0,RU,1708475058
336,broome,42.2506,-75.833,30.65,74,5,2.8,US,1708475058
337,kapuskasing,49.4169,-82.4331,24.8,58,20,9.22,CA,1708474803
338,hundested,55.9667,11.8667,45.18,93,100,5.01,DK,1708475059
339,cacheu,12.2706,-16.1658,77.09,23,48,4.88,GW,1708475059
340,mitu,1.1983,-70.1733,78.73,56,34,2.55,CO,1708475059
341,necochea,-38.5473,-58.7368,74.28,62,92,11.16,AR,1708474566
342,vilyuysk,63.7553,121.6247,-33.48,100,88,4.63,RU,1708475060
343,inhambane,-23.865,35.3833,78.48,76,44,8.63,MZ,1708475060
344,motomachi,43.8228,144.1044,21.22,79,75,2.3,JP,1708475060
345,madaoua,14.073,5.96,72.36,12,10,9.93,NE,1708475061
346,turpan,42.9333,89.1667,22.96,26,81,1.23,CN,1708475061
347,pedernales,18.0384,-71.744,77.92,77,43,4.07,DO,1708475061
348,bereznik,62.8551,42.7072,24.08,95,100,6.08,RU,1708475062
349,vorkuta,67.5,64.0,19.0,93,100,22.48,RU,1708474489
350,kupang,-10.1667,123.5833,84.78,100,75,5.75,ID,1708475062
351,ambodifotatra,-16.9833,49.85,78.1,80,59,14.03,MG,1708475062
352,nova sintra,14.8667,-24.7167,71.78,68,99,13.09,CV,1708474571
353,ferkessedougou,9.6,-5.2,78.22,15,30,4.68,CI,1708475063
354,nizhnevartovsk,60.9344,76.5531,-4.99,71,0,11.18,RU,1708475063
355,el fuerte,26.4189,-108.6194,86.29,14,0,10.56,MX,1708475063
356,poso,-1.3959,120.7524,83.28,71,95,1.07,ID,1708475064
357,touros,-5.1989,-35.4608,79.27,84,51,7.58,BR,1708474414
358,berdigestyakh,62.0989,126.6992,-22.32,95,100,8.12,RU,1708475064
359,hammerfest,70.6634,23.6821,18.05,73,59,3.44,NO,1708475064
360,mirny,62.5353,113.9611,-6.77,69,98,8.99,RU,1708475065
361,kingsbridge,50.2845,-3.7764,51.57,93,100,20.07,GB,1708475065
362,nadym,65.5333,72.5167,14.16,90,100,27.83,RU,1708474493
363,khandyga,62.6667,135.6,-43.35,100,100,1.86,RU,1708474529
364,sodra sandby,56.5667,16.6167,39.88,95,92,11.9,SE,1708475066
365,antofagasta,-23.65,-70.4,70.3,79,66,1.74,CL,1708474331
366,amga,60.8953,131.9608,-24.23,96,100,2.57,RU,1708474591
367,sarakhs,36.5449,61.1577,33.13,68,5,1.68,IR,1708475066
368,alice springs,-23.7,133.8833,93.22,37,44,12.66,AU,1708474913
369,shingu,33.7333,135.9833,60.93,96,97,3.53,JP,1708475067
370,imbituba,-28.24,-48.6703,73.96,86,99,6.53,BR,1708475067
371,ketchikan,55.3422,-131.6461,43.34,81,0,3.44,US,1708474525
372,tandil,-37.3217,-59.1332,69.69,65,95,5.5,AR,1708474880
373,banda aceh,5.5577,95.3222,78.35,85,55,3.29,ID,1708474487
374,labytnangi,66.6572,66.4183,18.97,86,100,20.07,RU,1708474540
375,carutapera,-1.195,-46.02,77.45,79,100,4.59,BR,1708475045
376,kovel,51.2153,24.7087,40.55,90,100,9.8,UA,1708475073
377,peschanokopskoye,46.1961,41.0775,31.51,78,96,9.51,RU,1708475002
378,cankuzo,-3.1333,30.5833,59.61,94,93,2.62,BI,1708475073
379,la sarre,48.8002,-79.1996,11.68,92,40,7.27,CA,1708474445
380,kruisfontein,-34.0033,24.7314,63.88,93,42,13.27,ZA,1708474595
381,puerto leguizamo,-0.1934,-74.7819,79.99,69,90,0.78,CO,1708475074
382,verkhnevilyuysk,63.4453,120.3167,-23.91,100,100,5.08,RU,1708475074
383,wladyslawowo,54.7909,18.4009,42.78,90,100,11.79,PL,1708475074
384,camp verde,34.5636,-111.8543,67.66,26,65,13.65,US,1708475075
385,novodvinsk,64.4165,40.8122,6.55,99,97,2.04,RU,1708475075
386,lerwick,60.1545,-1.1494,44.6,81,55,15.1,GB,1708475075
387,berbera,10.4396,45.0143,75.61,75,20,4.81,SO,1708475075
388,nema,57.5067,50.5011,2.39,99,99,6.46,RU,1708475076
389,baardheere,2.3446,42.2764,79.48,61,97,14.03,SO,1708475076
390,codrington,-38.2667,141.9667,82.45,33,18,6.04,AU,1708475076
391,rongelap,11.1635,166.8941,79.14,86,100,19.95,MH,1708475076
392,monki,53.405,22.7979,35.67,96,100,6.91,PL,1708475076
393,fada,9.5667,8.3,76.6,34,40,2.51,NG,1708475077
394,upata,8.0086,-62.3989,81.19,53,57,6.42,VE,1708475077
395,pishva,35.308,51.7267,44.2,61,18,2.77,IR,1708475077
396,ndele,8.4109,20.6473,77.2,17,100,4.5,CF,1708475077
397,douz,33.4663,9.0203,56.7,53,95,9.04,TN,1708475078
398,korla,41.7597,86.1469,19.67,37,65,8.63,CN,1708475078
399,malango,-2.9627,119.9001,74.08,89,96,0.27,ID,1708475078
400,saint-marcellin,45.15,5.3167,44.06,94,72,3.6,FR,1708475078
401,tangalle,6.024,80.7911,73.56,83,1,8.72,LK,1708475078
402,brunico,46.7958,11.9364,29.55,68,72,1.41,IT,1708475079
403,itupiranga,-5.1347,-49.3267,77.32,97,100,1.63,BR,1708475079
404,cadale,2.7603,46.3222,79.34,81,100,15.77,SO,1708474553
405,atamyrat,37.8357,65.2106,34.61,37,95,7.34,TM,1708475079
406,mae hong son,19.3003,97.9685,51.94,87,20,0.0,TH,1708475080
407,labrador city,52.9463,-66.9114,-11.29,66,0,6.91,CA,1708475080
408,lycksele,64.5954,18.6735,25.43,86,20,9.22,SE,1708475080
409,cova figueira,14.8905,-24.2934,72.41,62,98,12.57,CV,1708474546
410,durham,36.0335,-78.8664,47.61,63,95,4.23,US,1708475014
411,bayeux,-7.125,-34.9322,83.03,83,20,4.61,BR,1708475081
412,revda,56.801,59.9303,-10.97,100,100,2.46,RU,1708474589
413,lakatoro,-16.0999,167.4164,85.96,69,61,1.41,VU,1708475081
414,kuta,-8.7233,115.1723,82.35,88,75,5.01,ID,1708474365
415,pasuquin,18.3328,120.6177,73.35,83,20,6.91,PH,1708475081
416,pariaman,-0.619,100.12,77.05,89,100,3.98,ID,1708475082
417,nabire,-3.3667,135.4833,77.04,92,100,1.52,ID,1708475082
418,san antonio de pale,-1.4014,5.6325,84.18,76,98,1.9,GQ,1708474486
419,arkhangel'sk,64.5401,40.5433,6.91,92,100,0.0,RU,1708475082
420,bubaque,11.2833,-15.8333,80.46,66,30,9.33,GW,1708474486
421,katsuura,35.1333,140.3,57.61,88,100,14.88,JP,1708475083
422,benguela,-12.5763,13.4055,82.18,79,99,6.98,AO,1708475083
423,bay roberts,47.5999,-53.2648,19.51,71,29,11.01,CA,1708475083
424,kyabe,9.4515,18.9449,81.86,14,29,5.19,TD,1708475083
425,ust'-ilimsk,58.0006,102.6619,-16.56,96,10,5.99,RU,1708475084
426,san julian,21.0167,-102.1667,74.64,15,0,0.65,MX,1708475084
427,edson,53.5835,-116.4356,37.54,70,100,3.44,CA,1708475084
428,howrah,22.5892,88.3103,73.4,88,40,6.91,IN,1708475084
429,lae,-6.7221,146.9847,86.67,85,100,4.18,PG,1708475084
430,an nuhud,12.7,28.4333,68.2,15,13,14.47,SD,1708475085
431,upi,7.0258,124.1667,75.47,68,51,4.45,PH,1708475085
432,harstad,68.799,16.5293,31.62,96,99,11.99,NO,1708474494
433,vilyuchinsk,52.9306,158.4028,16.07,72,12,40.47,RU,1708475085
434,bhimunipatnam,17.8833,83.4333,72.91,76,3,7.43,IN,1708475086
435,la ronge,55.1001,-105.2842,17.85,62,96,2.3,CA,1708474498
436,kikwit,-5.041,18.8162,74.25,88,85,2.98,CD,1708475086
437,manali,13.1667,80.2667,75.29,74,12,7.02,IN,1708475086
438,tazacorte,28.629,-17.9293,67.17,62,100,14.97,ES,1708475086
439,usuki,33.1081,131.7878,54.97,98,100,1.57,JP,1708475086
440,enewetak,11.3474,162.3373,79.52,76,100,24.96,MH,1708474492
441,north bend,43.4065,-124.2243,58.24,66,100,12.66,US,1708475087
442,al ghayzah,16.2079,52.176,71.55,80,7,0.92,YE,1708474618
443,usogorsk,63.4106,48.6872,21.67,92,100,8.43,RU,1708475087
444,palmer,42.1584,-72.3287,30.51,57,0,0.0,US,1708475087
445,qarqin,37.4185,66.0436,38.17,62,99,1.57,AF,1708475088
446,gorom-gorom,14.4439,-0.2361,74.73,12,100,10.58,BF,1708475088
447,san juan,-31.5375,-68.5364,89.89,33,17,10.96,AR,1708475021
448,satka,55.0425,59.04,-0.6,96,100,2.64,RU,1708475088
449,jijiga,9.35,42.8,64.15,60,0,3.89,ET,1708475089
450,krasnaya gorbatka,55.8703,41.7641,5.0,98,87,6.15,RU,1708475089
451,naze,28.3667,129.4833,70.72,82,49,15.23,JP,1708475089
452,porto do son,42.6929,-8.9965,47.14,88,94,1.99,ES,1708475089
453,acarau,-2.8856,-40.12,75.56,95,100,4.34,BR,1708475067
454,puerto carreno,6.189,-67.4859,88.99,34,100,11.18,CO,1708475090
455,ornskoldsvik,63.2909,18.7153,27.55,93,100,3.44,SE,1708475090
456,danville,36.586,-79.395,45.77,58,0,0.0,US,1708475090
457,dinard,48.6314,-2.0614,49.28,93,100,11.5,FR,1708475091
458,sittwe,20.15,92.9,66.45,86,16,4.25,MM,1708475091
459,tsiombe,-25.3,45.4833,71.65,86,11,5.57,MG,1708474525
460,semnan,35.5729,53.3971,39.79,67,11,0.49,IR,1708474563
461,makarska,43.2969,17.0178,50.54,68,2,8.81,HR,1708475091
462,zeya,53.75,127.2667,-7.51,73,22,6.82,RU,1708475091
463,pratt,37.6439,-98.7376,70.41,34,0,8.05,US,1708475092
464,milford haven,51.7128,-5.0341,50.11,100,100,17.65,GB,1708475092
465,qaisumah,28.3112,46.1273,57.16,44,0,6.91,SA,1708475092
466,akrehamn,59.2667,5.1833,43.05,93,100,8.05,NO,1708475092
467,la fleche,47.6982,-0.0755,49.98,93,100,5.73,FR,1708475093
468,sandnessjoen,66.0217,12.6316,34.32,94,100,20.04,NO,1708475093
469,qarqaraly,49.4058,75.4742,-31.41,98,16,4.99,KZ,1708475093
470,poronaysk,49.2167,143.1167,-0.9,66,47,11.86,RU,1708475093
471,penzance,50.1186,-5.5371,50.77,92,100,27.54,GB,1708475093
472,zaraza,9.3503,-65.3245,79.05,65,64,11.41,VE,1708475093
473,queenstown,-31.8976,26.8753,60.69,89,0,0.96,ZA,1708474625
474,raja,8.4596,25.678,74.23,15,74,4.21,SS,1708475094
475,greenville,35.6127,-77.3663,48.13,54,0,6.91,US,1708475094
476,ulladulla,-35.35,150.4667,73.47,69,98,3.8,AU,1708475094
477,moires,35.0532,24.8744,51.22,82,64,3.62,GR,1708475094
478,starobaltachevo,56.0013,55.9213,-17.25,100,51,3.24,RU,1708475095
479,khabarovsk,48.4808,135.0928,-4.2,58,9,15.99,RU,1708474858
480,faya-largeau,17.9257,19.1043,75.15,14,88,17.92,TD,1708475095
481,tyuratam,45.6507,63.3156,22.51,64,99,1.63,KZ,1708475095
482,thunder bay,48.4001,-89.3168,31.98,86,75,6.91,CA,1708475095
483,bodo,67.28,14.405,38.77,76,75,16.11,NO,1708475095
484,santa maria del oro,25.9333,-105.3667,79.38,11,0,8.43,MX,1708475096
485,malvan,16.0667,73.4667,72.09,79,0,9.98,IN,1708475096
486,torghay,49.6339,63.4981,-2.52,90,100,6.33,KZ,1708475096
487,lethem,3.3803,-59.7968,86.52,33,91,9.62,GY,1708475096
488,myeik,12.4333,98.6,74.84,82,28,2.57,MM,1708475096
489,ajaccio,42.0,8.9167,50.7,69,0,8.05,FR,1708475096
490,les herbiers,46.8667,-1.0167,46.99,96,100,5.41,FR,1708475097
491,buka,40.8108,69.1986,25.16,75,29,2.75,UZ,1708474599
492,haiku-pauwela,20.9219,-156.3051,76.26,67,40,11.5,US,1708474623
493,mirpur sakro,24.5474,67.6277,70.25,71,16,13.53,PK,1708475097
494,port saint john's,-31.6229,29.5448,72.14,93,24,4.85,ZA,1708475097
495,jincheng,35.5022,112.8328,17.44,93,100,3.51,CN,1708475098
496,brisas de zicatela,15.8369,-97.0419,84.72,70,0,8.05,MX,1708474619
497,kurumkan,54.3,110.3,-15.88,88,56,5.01,RU,1708475098
498,lodja,-3.4833,23.4333,71.42,98,93,2.73,CD,1708475098
499,taro,-8.3862,115.28,73.4,88,24,0.54,ID,1708475098
500,bambari,5.768,20.6757,80.85,25,100,2.46,CF,1708475099
501,san jose del cabo,23.0589,-109.6977,88.88,25,0,9.22,MX,1708474897
502,leava,-14.3,-178.1667,83.95,80,96,22.28,WF,1708474525
503,shalqar,47.8333,59.6,6.35,89,100,6.82,KZ,1708475099
504,nanyang,32.9947,112.5328,21.43,93,100,19.71,CN,1708475099
505,lionel town,17.8101,-77.2406,76.89,85,91,5.3,JM,1708475099
506,slave lake,55.2834,-114.769,26.58,59,0,2.3,CA,1708475100
507,yoichi,43.2039,140.7703,24.66,65,100,14.74,JP,1708475100
508,al qitena,14.8648,32.3668,73.63,20,2,13.53,SD,1708475100
509,crane,31.3974,-102.3501,77.16,14,1,3.29,US,1708474588
510,maceio,-9.6658,-35.7353,81.48,84,86,12.15,BR,1708474537
511,luwuk,-0.9516,122.7875,84.81,70,72,1.14,ID,1708475101
512,ribeira brava,32.65,-17.0667,65.03,81,26,7.7,PT,1708475101
513,dalandzadgad,43.5708,104.425,-1.39,45,100,5.23,MN,1708474623
514,camabatela,-8.1881,15.375,64.65,96,90,2.39,AO,1708475101
515,reyes,-14.3167,-67.3833,73.54,98,100,1.1,BO,1708475102
516,kone,-21.0595,164.8658,90.36,54,17,4.45,NC,1708475102
517,arangaon,18.6667,75.1833,70.3,38,1,6.4,IN,1708475103
518,nova xavantina,-14.6667,-52.35,73.63,98,100,4.59,BR,1708475103
519,caleta de carquin,-11.0925,-77.6267,76.14,80,95,4.9,PE,1708475103
520,vigan,17.5747,120.3869,76.6,57,1,3.96,PH,1708475104
521,bondo,3.8146,23.6866,76.73,45,90,0.6,CD,1708474570
522,mabaruma,8.2,-59.7833,76.37,80,88,5.68,GY,1708475104
523,brookings,44.3114,-96.7984,41.38,60,0,4.61,US,1708474575
524,boende,-0.2167,20.8667,75.02,85,100,2.35,CD,1708475105
525,mukharram al fawqani,34.8151,37.0861,47.34,80,34,2.44,SY,1708475105
526,praia da vitoria,38.7333,-27.0667,62.85,72,20,16.28,PT,1708475105
527,kish,26.5578,54.0194,68.27,60,30,20.71,IR,1708475106
528,oyem,1.5995,11.5793,70.92,96,99,3.04,GA,1708475106
529,kerikeri,-35.2268,173.9474,74.34,56,60,6.82,NZ,1708475106
530,okhotsk,59.3833,143.3,-24.56,79,59,17.07,RU,1708475106
531,metlili chaamba,32.2667,3.6333,49.14,43,0,4.61,DZ,1708475107
532,nantucket,41.2835,-70.0995,27.01,68,0,4.61,US,1708474894
533,anchorage,61.2181,-149.9003,44.64,72,75,18.99,US,1708474293
534,luderitz,-26.6481,15.1594,65.75,60,1,15.14,NA,1708474556
535,sigli,5.3848,95.9609,77.59,87,61,4.74,ID,1708475108
536,ribadesella,43.4614,-5.0596,49.95,54,97,4.79,ES,1708475108
537,mountain home,43.133,-115.6912,54.88,41,0,11.5,US,1708475108
538,kismayo,-0.3582,42.5454,79.29,75,100,15.12,SO,1708475109
539,juan diaz covarrubias,18.1628,-95.2069,72.27,78,34,5.03,MX,1708475109
540,gereida,11.2811,25.1414,72.54,12,100,12.77,SD,1708475109
541,cidreira,-30.1811,-50.2056,72.12,79,15,7.96,BR,1708474527
542,makokou,0.5738,12.8642,73.17,92,89,2.04,GA,1708475110
543,turkmenbasy,40.0222,52.9552,36.37,69,100,11.5,TM,1708475110
544,metu,8.3,35.5833,63.41,85,92,1.68,ET,1708475111
545,wajir,1.7471,40.0573,80.82,64,100,17.63,KE,1708475111
546,warman,52.3168,-106.5679,22.91,73,75,2.3,CA,1708475111
547,francistown,-21.17,27.5079,71.22,56,0,7.34,BW,1708475111
548,perryton,36.4,-100.8027,67.93,12,0,0.0,US,1708474951
549,mathba,22.2855,89.9629,70.59,96,15,6.64,BD,1708475112
550,hirtshals,57.5881,9.9592,41.41,98,100,18.05,DK,1708475112
551,joshimath,30.5667,79.5667,38.59,93,100,0.76,IN,1708475112
552,bamboo flat,11.7,92.7167,69.89,94,44,1.14,IN,1708475113
553,qacha's nek,-30.1154,28.6894,56.53,87,0,2.39,LS,1708475113
554,leirvik,59.7798,5.5005,41.86,95,100,3.87,NO,1708475113
555,riberalta,-10.9833,-66.1,74.34,99,99,2.01,BO,1708475114
556,kipushi,-11.7667,27.2333,61.9,96,63,4.0,CD,1708475114
557,musoma,-1.5,33.8,72.55,78,77,7.27,TZ,1708475114
558,saudarkrokur,65.7461,-19.6394,28.02,89,75,10.74,IS,1708474581
559,guasdualito,7.2424,-70.7324,87.58,33,24,4.0,VE,1708475115
560,bako,5.7833,36.5667,72.0,59,35,2.86,ET,1708475115
561,taiyuan,37.8694,112.5603,17.46,67,20,4.47,CN,1708475115
